[
  {
    "Timings": "Sunrise - Sunset",
    "Is Ticketed": "No",
    "Name": "Abdu'n Nabi Mosque",
    "Started In": "1575",
    "Longitude": "77.24194396677012",
    "Completed In": "1576",
    "Location": "Tilak Bridge\nMathura Road, Delhi",
    "Built By": "Abdu'n Nabi",
    "Latitude": "28.6283201870703",
    "Type": "Mosque"
  },
  {
    "Is Ticketed": "No",
    "Name": "Adam Khan's Tomb",
    "Timings": "Sunrise - Sunset",
    "Alternate Name": "Bhool Bhulaiyya",
    "Longitude": "77.18190271797175",
    "Location": "Near Bus Depot\nMehrauli, Delhi",
    "Built By": "Mohd. Jalaluddin Akbar",
    "Latitude": "28.5230114578699",
    "Type": "Tomb",
    "Built In": "1561"
  },
  {
    "Is Ticketed": "No",
    "Name": "Adilabad Fort",
    "Timings": "Sunrise - Sunset",
    "Alternate Name": "Muhammadabad",
    "Longitude": "77.26757247390742",
    "Location": "M.B. Road\nTughlakabad, Delhi",
    "Built By": "Mohd. bin Tughlaq",
    "Latitude": "28.5056556076958",
    "Type": "Fort",
    "Built In": "1326"
  },
  {
    "Timings": "Sunrise - Sunset",
    "Ticket (SAARC Nationals)": "10",
    "Is Ticketed": "Yes",
    "Name": "Afsarwala Mosque",
    "Ticket (Foreign Nationals)": "0",
    "Started In": "1566",
    "Longitude": "77.24786896648402",
    "Complex": "Humayun's Tomb Complex",
    "Completed In": "1567",
    "Location": "Humayun's Tomb Complex\nNizamuddin, Delhi",
    "Built By": "Mohd. Jalaluddin Akbar",
    "Latitude": "28.592717152755355",
    "Type": "Mosque"
  },
  {
    "Timings": "Sunrise - Sunset",
    "Ticket (SAARC Nationals)": "0",
    "Is Ticketed": "Yes",
    "Name": "Afsarwala Tomb",
    "Ticket (Foreign Nationals)": "0",
    "Started In": "1566",
    "Longitude": "77.24785287322993",
    "Complex": "Humayun's Tomb Complex",
    "Completed In": "1567",
    "Location": "Humayun's Tomb Complex\nNizamuddin, Delhi",
    "Built By": "Mohd. Jalaluddin Akbar",
    "Latitude": "28.5925993978375",
    "Type": "Tomb"
  },
  {
    "Is Ticketed": "No",
    "Name": "Ajitgarh",
    "Timings": "9 AM - 5 PM",
    "Alternate Name": "Mutiny Memorial",
    "Longitude": "77.21061308326716",
    "Location": "Near Hindu Rao Hospital\nRani Jhansi Road, Delhi",
    "Built By": "British",
    "Latitude": "28.6713008792882",
    "Type": "Tower",
    "Built In": "1863"
  },
  {
    "Is Ticketed": "No",
    "Name": "Ajmeri Gate",
    "Timings": "Sunrise - Sunset",
    "Longitude": "77.2238578313827",
    "Location": "Asif Ali Road\nOld Delhi, Delhi",
    "Built By": "Shahjahan",
    "Latitude": "28.6463290285278",
    "Type": "Gate",
    "Built In": "1644"
  },
  {
    "Is Ticketed": "No",
    "Name": "Alai Gate",
    "Timings": "Sunrise - Sunset",
    "Longitude": "77.1856765860557",
    "Complex": "Qutb Complex",
    "Location": "Qutub Complex\nMehrauli, Delhi",
    "Built By": "Alauddin Khilji",
    "Latitude": "28.5242086328159",
    "Type": "Gate"
  },
  {
    "Ticket (SAARC Nationals)": "10",
    "Is Ticketed": "Yes",
    "Name": "Alai Minar",
    "Ticket (Foreign Nationals)": "250",
    "Timings": "Sunrise - Sunset",
    "Longitude": "77.18532521667476",
    "Complex": "Qutb Complex",
    "Location": "Qutub Complex\nMehrauli, Delhi",
    "Built By": "Alauddin Khilji",
    "Latitude": "28.5257734236638",
    "Type": "Tower"
  },
  {
    "Ticket (SAARC Nationals)": "10",
    "Is Ticketed": "Yes",
    "Name": "Allaudin Khilji's Tomb",
    "Ticket (Foreign Nationals)": "250",
    "Timings": "Sunrise - Sunset",
    "Longitude": "77.18453396501536",
    "Complex": "Qutb Complex",
    "Location": "Qutub Complex\nMehrauli, Delhi",
    "Latitude": "28.5238975571687",
    "Type": "Tomb"
  },
  {
    "Is Ticketed": "No",
    "Name": "Amir Khusro's Tomb",
    "Timings": " - ",
    "Longitude": "77.24195201339717",
    "Complex": "Nizamuddin Dargah Complex",
    "Location": "Nizamuddin Dargah Complex\nNizamuddin, Delhi",
    "Latitude": "28.591179263142",
    "Type": "Tomb",
    "Built In": "1325"
  },
  {
    "Is Ticketed": "No",
    "Name": "Anangtal",
    "Timings": " - ",
    "Longitude": "77.18377529990403",
    "Complex": "Lal Kot",
    "Location": "Lal Kot, Sanjay Van\nMehrauli, Delhi",
    "Built By": "Anangpal Tomar",
    "Latitude": "28.526863839596484",
    "Type": "BaoliDam"
  },
  {
    "Is Ticketed": "No",
    "Name": "Arab Ki Sarai",
    "Timings": "Sunrise - Sunset",
    "Longitude": "77.24771876277919",
    "Complex": "Humayun's Tomb Complex",
    "Location": "Humayun's Tomb Complex\nNizamuddin, Delhi",
    "Built By": "Hamida Banu Begum",
    "Latitude": "28.592952662195",
    "Type": "CaravanSarai",
    "Built In": "1562"
  },
  {
    "Name": "Asad Khan's Tomb",
    "Longitude": "77.196687054061798",
    "Timings": "Sunrise - Sunset",
    "Latitude": "28.6648431311664",
    "Type": "Tomb",
    "Location": "near Kishanganj Railway Station\nSarai Rohilla, Delhi"
  },
  {
    "Is Ticketed": "No",
    "Name": "Ashiq Allah",
    "Timings": " - ",
    "Longitude": "77.17709230000003",
    "Complex": "Lal Kot",
    "Location": "near Lal Kot, Sanjay Van\nMehrauli, Delhi",
    "Latitude": "28.5294199",
    "Type": "Tomb",
    "Alternate Name": "Khizr Khana"
  },
  {
    "Is Ticketed": "No",
    "Name": "Ashokan Pillar (Feroz Shah Kotla)",
    "Timings": "Sunrise - Sunset",
    "Longitude": "77.24539596977229",
    "Complex": "Kotla Feroz Shah",
    "Location": "Pyramidial Structure\nFeroz Shah Kotla, Delhi",
    "Built By": "Ashoka the great",
    "Latitude": "28.6357712786908",
    "Type": "Tower",
    "Alternate Name": "Delhi-Topta pillar"
  },
  {
    "Is Ticketed": "No",
    "Name": "Ashokan Pillar (Ridge)",
    "Timings": "Sunrise - Sunset",
    "Longitude": "77.21185226383204",
    "Location": "Near Hindu Rao Hospital\nDelhi Ridge, Delhi",
    "Built By": "Ashoka the great",
    "Latitude": "28.6737906773245",
    "Type": "Tower",
    "Alternate Name": "Delhi-Meerut pillar"
  },
  {
    "Is Ticketed": "No",
    "Name": "Ashokan rock edict",
    "Timings": "Sunrise - Sunset",
    "Longitude": "77.25668270530696",
    "Location": "Kailash Hill\nEast of Kailash, Delhi",
    "Built By": "Ashoka the great",
    "Latitude": "28.5579195481643",
    "Type": "Other"
  },
  {
    "Timings": "Sunrise - Sunset",
    "Is Ticketed": "No",
    "Name": "Ataga Khan's Tomb",
    "Started In": "1566",
    "Longitude": "77.24221486988063",
    "Complex": "Nizamuddin Dargah Complex",
    "Completed In": "1567",
    "Location": "Nizamuddin Dargah Complex\nNizamuddin, Delhi",
    "Built By": "Mohd. Jalaluddin Akbar",
    "Latitude": "28.5915278220246",
    "Type": "Tomb"
  },
  {
    "Is Ticketed": "No",
    "Name": "Athpula",
    "Timings": "Sunrise - Sunset",
    "Longitude": "77.22286004962916",
    "Complex": "Lodhi Garden",
    "Location": "Lodhi Garden\nLodhi Road, Delhi",
    "Built By": "Nawab Bahadur",
    "Latitude": "28.5964287201546",
    "Type": "Bridge",
    "Alternate Name": "Khairpur ka Pul"
  },
  {
    "Is Ticketed": "No",
    "Name": "Auliya Masjid",
    "Longitude": "77.1785504597558",
    "Timings": " - ",
    "Latitude": "28.513015514435732",
    "Type": "Mosque",
    "Location": "\nMehrauli, Delhi"
  },
  {
    "Is Ticketed": "No",
    "Name": "Azim Khan's Tomb",
    "Longitude": "77.19052870216365",
    "Timings": "Sunrise - Sunset",
    "Latitude": "28.5217294286803",
    "Type": "Tomb",
    "Location": "Anuvrat Marg, MG Road\nMehrauli, Delhi"
  },
  {
    "Is Ticketed": "No",
    "Name": "Bada Gumbad Masjid",
    "Timings": "Sunrise - Sunset",
    "Longitude": "77.22031195106501",
    "Complex": "Lodhi Garden",
    "Location": "Lodhi Garden\nLodhi Road, Delhi",
    "Built By": "Sikandar Lodhi",
    "Latitude": "28.5930657065386",
    "Type": "Mosque",
    "Built In": "1494"
  },
  {
    "Is Ticketed": "No",
    "Name": "Bada Hindu Rao",
    "Longitude": "77.21188445034022",
    "Timings": " - ",
    "Latitude": "28.6753250035472",
    "Type": "Residential",
    "Location": "Bada Hindu Rao Hospital\nDelhi Ridge, Delhi"
  },
  {
    "Is Ticketed": "No",
    "Name": "Badarpur Gateways",
    "Longitude": "77.30144999999993",
    "Timings": " - ",
    "Latitude": "28.503801",
    "Type": "Gate",
    "Location": "\nBadarpur, Delhi"
  },
  {
    "Is Ticketed": "No",
    "Name": "Bade Khan ka Gumbad",
    "Longitude": "77.22003300132747",
    "Timings": "Sunrise - Sunset",
    "Latitude": "28.5730549644559",
    "Type": "Tomb",
    "Location": "\nSouth Ex (Part 1), Delhi"
  },
  {
    "Is Ticketed": "No",
    "Name": "Badi Masjid, Turkman",
    "Longitude": "77.232393",
    "Timings": "Sunrise - Sunset",
    "Latitude": "28.642681",
    "Type": "Mosque",
    "Location": "Turkman Gate\nOld Delhi, Delhi"
  },
  {
    "Is Ticketed": "No",
    "Name": "Badli ki Sarai",
    "Timings": "Sunrise - Sunset",
    "Longitude": "77.16753144206996",
    "Location": "\nPipalthala, Delhi",
    "Latitude": "28.7189638745261",
    "Type": "CaravanSarai",
    "Alternate Name": "Sarai Pipalthala"
  },
  {
    "Is Ticketed": "No",
    "Name": "Bagh wali Masjid",
    "Longitude": "77.23064299999999",
    "Timings": "Sunrise - Sunset",
    "Latitude": "28.602525",
    "Type": "Mosque",
    "Location": "Behind Delhi Golf Club\nPandara Road, Delhi"
  },
  {
    "Is Ticketed": "No",
    "Name": "Bagh-e-Alam",
    "Timings": "Sunrise - Sunset",
    "Longitude": "77.19837148132319",
    "Complex": "Hauz Khas & Deer Park",
    "Location": "Deer Park\nHauz Khas, Delhi",
    "Latitude": "28.5560937282725",
    "Type": "Tomb",
    "Alternate Name": "Bagh-e-Alam ka Gumbad"
  },
  {
    "Is Ticketed": "No",
    "Name": "Bagh-e-Bedil",
    "Longitude": "77.24007539769966",
    "Timings": "Sunrise - Sunset",
    "Latitude": "28.614094737946743",
    "Type": "Tomb",
    "Location": "Opposite Pragati Maidan\nMathura Road, Delhi"
  },
  {
    "Is Ticketed": "No",
    "Name": "Bagichi Ki Masjid",
    "Longitude": "77.18243179223286",
    "Timings": "Sunrise - Sunset",
    "Latitude": "28.515295175108463",
    "Type": "Mosque",
    "Location": "Ladha Sarai\nMehrauli, Delhi"
  },
  {
    "Is Ticketed": "No",
    "Name": "Bagichi Tomb",
    "Longitude": "77.23775",
    "Timings": "Sunrise - Sunset",
    "Latitude": "28.599411",
    "Type": "Tomb",
    "Location": "\nDelhi Golf Club, Delhi"
  },
  {
    "Is Ticketed": "No",
    "Name": "Bahlol Lodhi's Tomb",
    "Timings": "Sunrise - Sunset",
    "Longitude": "77.2265775913238",
    "Complex": "Chirag Dilli Dargah Complex",
    "Location": "\nChirag Delhi, Delhi",
    "Latitude": "28.5387291879073",
    "Type": "Tomb"
  },
  {
    "Is Ticketed": "No",
    "Name": "Balban's Ruins",
    "Timings": "Sunrise - Sunset",
    "Longitude": "77.1881790870666",
    "Complex": "Mehrauli Archaeological Park",
    "Location": "Mehrauli Archeological Park\nMehrauli, Delhi",
    "Latitude": "28.5193161549733",
    "Type": "Residential"
  },
  {
    "Is Ticketed": "No",
    "Name": "Balban's Tomb",
    "Timings": "Sunrise - Sunset",
    "Longitude": "77.18867797794337",
    "Complex": "Mehrauli Archaeological Park",
    "Location": "Mehrauli Archeological Park\nMehrauli, Delhi",
    "Latitude": "28.5196979460932",
    "Type": "Tomb"
  },
  {
    "Is Ticketed": "No",
    "Name": "Banjaron ki baoli",
    "Timings": " - ",
    "Longitude": "77.23421652259822",
    "Location": "\nMatia Mahal, Delhi",
    "Latitude": "28.6488311889448",
    "Type": "BaoliDam",
    "Alternate Name": "Matia Mahal Baoli"
  },
  {
    "Is Ticketed": "No",
    "Name": "Baoli, Bara Hindu Rao",
    "Longitude": "77.21223850193019",
    "Timings": "Sunrise - Sunset",
    "Latitude": "28.6760592130544",
    "Type": "BaoliDam",
    "Location": "Inside Hindu Rao Hospital\nDelhi Ridge, Delhi"
  },
  {
    "Name": "Baoli, Hz. Nizamuddin",
    "Longitude": "77.241927873516005",
    "Complex": "Nizamuddin Dargah Complex\nNizamuddin, Delhi",
    "Timings": "Sunrise - Sunset",
    "Latitude": "28.5917798199565",
    "Type": "BaoliDam",
    "Alternate Name": "Nizamuddin ki baoli"
  },
  {
    "Is Ticketed": "Yes",
    "Name": "Baoli, Kotla Feroz Shah",
    "Timings": "Sunrise - Sunset",
    "Longitude": "77.24471737089152",
    "Complex": "Kotla Feroz Shah",
    "Location": "\nKotla Feroz Shah, Delhi",
    "Latitude": "28.6359831503379",
    "Type": "BaoliDam"
  },
  {
    "Is Ticketed": "No",
    "Name": "Baoli, Loharheri",
    "Timings": " - ",
    "Longitude": "77.04376358928675",
    "Location": "Sector 12\nDwarka, Delhi",
    "Latitude": "28.5989320700918",
    "Type": "BaoliDam",
    "Alternate Name": "Dwarka Baoli"
  },
  {
    "Ticket (SAARC Nationals)": "5",
    "Is Ticketed": "Yes",
    "Name": "Baoli, Old Fort",
    "Timings": "Sunrise - Sunset",
    "Longitude": "77.24430162849421",
    "Complex": "Old Fort Complex",
    "Location": "Old Fort Complex\nMathura Road, Delhi",
    "Latitude": "28.6091897654977",
    "Type": "BaoliDam"
  },
  {
    "Is Ticketed": "No",
    "Name": "Baoli, Qutb Sahib",
    "Timings": "Sunrise - Sunset",
    "Longitude": "77.18087543191905",
    "Complex": "Mehrauli Dargah Complex",
    "Location": "Dargah Hz. Kaki\nMehrauli, Delhi",
    "Latitude": "28.5190710537726",
    "Type": "BaoliDam"
  },
  {
    "Name": "Baoli, Red Fort",
    "Longitude": "77.240581000000006",
    "Complex": "Red Fort Complex\nRed Fort, Delhi",
    "Timings": "Sunrise - Sunset",
    "Latitude": "28.658984",
    "Type": "BaoliDam"
  },
  {
    "Is Ticketed": "Yes",
    "Name": "Baoli, Tughlaqabad North-West",
    "Timings": "Sunrise - Sunset",
    "Longitude": "77.25994427146907",
    "Complex": "Tughlaqabad Fort Complex",
    "Location": "Tughlaqabad Fort\nTughlakabad, Delhi",
    "Built By": "Ghiasuddin Tughlaq",
    "Latitude": "28.5126039470432",
    "Type": "BaoliDam"
  },
  {
    "Is Ticketed": "Yes",
    "Name": "Baoli, Tughlaqabad South-East",
    "Timings": "Sunrise - Sunset",
    "Longitude": "77.26294566335673",
    "Complex": "Tughlaqabad Fort Complex",
    "Location": "Tughlaqabad Fort\nTughlakabad, Delhi",
    "Latitude": "28.5113642158356",
    "Type": "BaoliDam"
  },
  {
    "Is Ticketed": "No",
    "Name": "Baoli, Wazirpur Complex",
    "Timings": "Sunrise - Sunset",
    "Longitude": "77.1749772542953",
    "Complex": "Wazirpur Gumbad Complex",
    "Location": "Sector 5\nR.K.Puram, Delhi",
    "Latitude": "28.562275473141",
    "Type": "BaoliDam"
  },
  {
    "Is Ticketed": "No",
    "Name": "Baqi Billah Shah's Tomb",
    "Timings": " - ",
    "Alternate Name": "Khwaja Baqi billah's Dargah",
    "Longitude": "77.21525615052448",
    "Location": "Qutub Road\nPaharganj, Delhi",
    "Latitude": "28.65301251644496",
    "Type": "Tomb",
    "Built In": "1603"
  },
  {
    "Name": "Bara Batasha",
    "Longitude": "77.2489150279998",
    "Timings": "Sunrise - Sunset",
    "Latitude": "28.595703373377798",
    "Type": "Tomb\nNizamuddin, Delhi",
    "Alternate Name": "Bade Btashewala Mahal"
  },
  {
    "Is Ticketed": "No",
    "Name": "Bara Lao ka Gumbad",
    "Longitude": "77.16542859020217",
    "Timings": "Sunrise - Sunset",
    "Latitude": "28.559066853624",
    "Type": "Tomb",
    "Location": "Vasant Udyaan\nBasant Lok, Delhi"
  },
  {
    "Is Ticketed": "No",
    "Name": "Bara Lao's Mosque",
    "Longitude": "77.16610450687403",
    "Timings": "Sunrise - Sunset",
    "Latitude": "28.5589113673742",
    "Type": "Mosque",
    "Location": "Vasant Udyaan\nBasant Lok, Delhi"
  },
  {
    "Name": "Baradari, Panchsheel Park",
    "Longitude": "77.215237999999999",
    "Timings": "Sunrise - Sunset",
    "Latitude": "28.541347999999999",
    "Type": "Mosque",
    "Location": "Panchsheel Park\nMalviya Nagar, Delhi"
  },
  {
    "Is Ticketed": "No",
    "Name": "Baradari, Roshanara Bagh",
    "Timings": "Sunrise - Sunset",
    "Longitude": "77.20029194297786",
    "Location": "Roshnara Bagh\nSubzi Mandi, Delhi",
    "Latitude": "28.6736353608408",
    "Type": "Tomb",
    "Alternate Name": "Raushanara's Tomb"
  },
  {
    "Timings": "Sunrise - Sunset",
    "Name": "Barah Pullah",
    "Longitude": "77.253474783325103",
    "Latitude": "28.584351515256301",
    "Type": "Bridge\nNizamuddin, Delhi"
  },
  {
    "Timings": "Sunrise - Sunset",
    "Name": "Barakhamba, Gold Club",
    "Longitude": "77.237756000000005",
    "Latitude": "28.599411",
    "Type": "Tomb\nDelhi Golf Club, Delhi"
  },
  {
    "Timings": "Sunrise - Sunset",
    "Name": "Barakhamba, Green Park",
    "Longitude": "77.202217769050606",
    "Latitude": "28.5527529848748",
    "Type": "Tomb\nGreen Park, Delhi"
  },
  {
    "Is Ticketed": "No",
    "Name": "Barakhamba, Nizamuddin",
    "Longitude": "77.24242408218367",
    "Timings": " - ",
    "Latitude": "28.592524034621",
    "Type": "Other",
    "Location": "\nNizamuddin, Delhi"
  },
  {
    "Timings": "Sunrise - Sunset",
    "Name": "Basti Khan's Mosque",
    "Longitude": "77.234060954475297",
    "Latitude": "28.578298260054002",
    "Type": "Mosque\nDefense Colony, Delhi"
  },
  {
    "Timings": "Sunrise - Sunset",
    "Name": "Basti Khan's Tomb",
    "Longitude": "77.234037999999998",
    "Latitude": "28.578419",
    "Type": "Tomb\nDefense Colony, Delhi"
  },
  {
    "Is Ticketed": "No",
    "Name": "Baunta Flag Staff Tower",
    "Timings": "Sunrise - Sunset",
    "Longitude": "77.2180588954925",
    "Location": "Kamla Nehru Ridge Forest (DU)\nNorth Delhi, Delhi",
    "Built By": "Shahjahan",
    "Latitude": "28.6879470429845",
    "Type": "Tower"
  },
  {
    "Is Ticketed": "No",
    "Name": "Begumpur Mosque",
    "Longitude": "77.20636446418757",
    "Timings": "Sunrise - Sunset",
    "Latitude": "28.5390166567904",
    "Type": "Mosque",
    "Location": "\nBegumpur, Delhi"
  },
  {
    "Is Ticketed": "No",
    "Name": "Bhuli Bhatiyari",
    "Timings": "Sunrise - Sunset",
    "Longitude": "77.19823468866343",
    "Location": "Near Jhandewalan Metro\nDelhi Ridge, Delhi",
    "Latitude": "28.6417906210066",
    "Type": "HuntingLodge",
    "Alternate Name": "Bu Ali Bakhtiyari ka Mahal"
  },
  {
    "Is Ticketed": "No",
    "Name": "Bijay Mandal",
    "Timings": "Sunrise - Sunset",
    "Longitude": "77.20607478561396",
    "Location": "Near Begumpur, Kalu Sarai\nSarvpriya Vihar, Delhi",
    "Latitude": "28.5415991289562",
    "Type": "Residential",
    "Alternate Name": "Qasr-i-Hazaar Sutoon"
  },
  {
    "Is Ticketed": "No",
    "Name": "Bijri Khan's Tomb",
    "Longitude": "77.18174714984877",
    "Timings": "Sunrise - Sunset",
    "Latitude": "28.5587040520173",
    "Type": "Tomb",
    "Location": "\nR.K.Puram, Delhi"
  },
  {
    "Is Ticketed": "No",
    "Name": "Biran ka gumbad",
    "Longitude": "77.20288832130427",
    "Timings": "Sunrise - Sunset",
    "Latitude": "28.5555118151496",
    "Type": "Tomb",
    "Location": "\nGreen Park, Delhi"
  },
  {
    "Name": "Bu-Halima's Tomb",
    "Longitude": "77.246651243591302",
    "Complex": "Humayun's Tomb Complex",
    "Timings": "Sunrise - Sunset",
    "Latitude": "28.593743970047601",
    "Type": "Tomb",
    "Location": "Humayun's Tomb Complex\nNizamuddin, Delhi"
  },
  {
    "Name": "Chakkarwali Masjid",
    "Longitude": "77.243441000000004",
    "Timings": "Sunrise - Sunset",
    "Latitude": "28.594086000000001",
    "Type": "Mosque",
    "Location": "near Sabz Burj, Humayun's Tomb\nNizamuddin, Delhi"
  },
  {
    "Name": "Charbagh, Qutub Complex",
    "Longitude": "77.186528999999993",
    "Complex": "Qutb Complex\nMehrauli, Delhi",
    "Timings": "Sunrise - Sunset",
    "Latitude": "28.526056000000001",
    "Type": "Garden"
  },
  {
    "Is Ticketed": "No",
    "Name": "Chauburja",
    "Longitude": "77.21524257602687",
    "Timings": " - ",
    "Latitude": "28.6815350299744",
    "Type": "Mosque",
    "Location": "Chauburja Marg\nDelhi Ridge, Delhi"
  },
  {
    "Is Ticketed": "No",
    "Name": "Chaumachi Khan's Tomb",
    "Timings": " - ",
    "Longitude": "77.17823345603938",
    "Location": "\nMehrauli, Delhi",
    "Latitude": "28.521446626025",
    "Type": "Tomb",
    "Alternate Name": "Kala Gumbad"
  },
  {
    "Is Ticketed": "No",
    "Name": "Chaumukha Darwaza",
    "Timings": "Sunrise - Sunset",
    "Longitude": "77.18744952621455",
    "Complex": "Mehrauli Archaeological Park",
    "Location": "Mehrauli Archaeological Park\nMehrauli, Delhi",
    "Latitude": "28.5234474385088",
    "Type": "Gate"
  },
  {
    "Timings": "Sunrise - Sunset",
    "Name": "Chausath Khamba",
    "Longitude": "77.243000757122005",
    "Latitude": "28.5911886836676",
    "Type": "Tomb\nNizamuddin, Delhi"
  },
  {
    "Name": "Chhota Batasha",
    "Longitude": "77.249676775360001",
    "Timings": "Sunrise - Sunset",
    "Latitude": "28.596023656987398",
    "Type": "Tomb\nNizamuddin, Delhi",
    "Alternate Name": "Chhote Batashewala Mahal"
  },
  {
    "Is Ticketed": "No",
    "Name": "Chhote Khan ka Gumbad",
    "Longitude": "77.22045679035182",
    "Timings": "Sunrise - Sunset",
    "Latitude": "28.572998431543",
    "Type": "Tomb",
    "Location": "\nSouth Ex (Part 1), Delhi"
  },
  {
    "Is Ticketed": "No",
    "Name": "Chhoti Gumti",
    "Longitude": "77.20130045356746",
    "Timings": "Sunrise - Sunset",
    "Latitude": "28.5533985246541",
    "Type": "Tomb",
    "Location": "Near Kharehra Village\nGreen Park, Delhi"
  },
  {
    "Timings": "Sunrise - Sunset",
    "Name": "Chor Minar",
    "Longitude": "77.205634903335493",
    "Latitude": "28.547659207365701",
    "Type": "Tower\nHauz Khas, Delhi"
  },
  {
    "Is Ticketed": "No",
    "Name": "Circular Path",
    "Timings": "Sunrise - Sunset",
    "Longitude": "77.18726177158351",
    "Complex": "Mehrauli Archaeological Park",
    "Location": "Mehrauli Archaeological Park\nMehrauli, Delhi",
    "Latitude": "28.5230208844974",
    "Type": "Other"
  },
  {
    "Is Ticketed": "No",
    "Name": "Dadi Poti",
    "Timings": "Sunrise - Sunset",
    "Longitude": "77.2036849373817",
    "Location": "\nGreen Park, Delhi",
    "Latitude": "28.5533891007441",
    "Type": "Tomb",
    "Alternate Name": "Baandi Poti ka Gumbad"
  },
  {
    "Name": "Dargah, Hazrat Bakhtiyar Kaki",
    "Longitude": "77.180200856351803",
    "Complex": "Mehrauli Dargah Complex\nMehrauli, Delhi",
    "Timings": "Sunrise - Sunset",
    "Latitude": "28.519232490685201",
    "Type": "Tomb"
  },
  {
    "Name": "Dargah, Hazrat Chirag Dehlvi",
    "Longitude": "77.226993333721097",
    "Complex": "Chirag Dilli Dargah Complex\nChirag Delhi, Delhi",
    "Timings": "Sunrise - Sunset",
    "Latitude": "28.538717406379",
    "Type": "Tomb"
  },
  {
    "Name": "Dargah, Hazrat Nizamuddin",
    "Longitude": "77.241962742233198",
    "Complex": "Nizamuddin Dargah Complex",
    "Timings": "Sunrise - Sunset",
    "Latitude": "28.591421841405499",
    "Type": "Tomb",
    "Location": "Nizamuddin Dargah Complex\nNizamuddin, Delhi"
  },
  {
    "Name": "Dargah, Hz. Sayad Sadruddin Shah",
    "Timings": "Sunrise - Sunset",
    "Longitude": "77.238091999999995",
    "Complex": "Red Fort Complex",
    "Location": "In lawn, outside Red Fort\nOld Delhi, Delhi",
    "Latitude": "28.652878000000001",
    "Type": "Tomb",
    "Alternate Name": "Dargah Bhole Mian"
  },
  {
    "Timings": "Sunrise - Sunset",
    "Name": "Dargah, Mai Sahiba",
    "Longitude": "77.197417999999999",
    "Latitude": "28.537683999999999",
    "Type": "Tomb\nAdhchini, Delhi"
  },
  {
    "Name": "Dargah, Roshan Khan, Kale Khan",
    "Longitude": "77.108627449893902",
    "Timings": "Sunrise - Sunset",
    "Latitude": "28.558998533936499",
    "Type": "Tomb",
    "Location": "Opposite Blue Dart Hanger\nIndira Gandhi Intl. Airport, Delhi"
  },
  {
    "Name": "Dargah, Shah Turkman Biyabani",
    "Longitude": "77.232864000000006",
    "Timings": "Sunrise - Sunset",
    "Latitude": "28.642330000000001",
    "Type": "Tomb",
    "Location": "Turkman Gate\nOld Delhi, Delhi"
  },
  {
    "Name": "Dargah, Sufi Sarmad Shaheed",
    "Longitude": "77.234482",
    "Timings": "Sunrise - Sunset",
    "Latitude": "28.650879",
    "Type": "Tomb",
    "Location": "Jama Masjid\nOld Delhi, Delhi"
  },
  {
    "Timings": "Sunrise - Sunset",
    "Name": "Darya Khan's Tomb",
    "Longitude": "77.216631960296596",
    "Latitude": "28.572225812021198",
    "Type": "Tomb\nEast Kidwai Nagar, Delhi"
  },
  {
    "Name": "Delhi Gate",
    "Longitude": "77.240503620529097",
    "Timings": "Sunrise - Sunset",
    "Latitude": "28.641192704132798",
    "Type": "Gate",
    "Location": "Bahadur Shah Zafar Marg\nDaryaganj, Delhi"
  },
  {
    "Name": "Dhaula Peer",
    "Longitude": "77.198956999999993",
    "Timings": "Sunrise - Sunset",
    "Latitude": "28.522455000000001",
    "Type": "Tomb",
    "Location": "Mehrauli Badarpur Road\nLado Sarai, Delhi"
  },
  {
    "Is Ticketed": "No",
    "Name": "Dovecoat",
    "Timings": "Sunrise - Sunset",
    "Longitude": "77.18766678514476",
    "Complex": "Mehrauli Archaeological Park",
    "Location": "Mehrauli Archaeological Park\nMehrauli, Delhi",
    "Latitude": "28.5224835653857",
    "Type": "Other"
  },
  {
    "Timings": "Sunrise - Sunset",
    "Name": "East Gate, Chirag Delhi",
    "Longitude": "77.230299000000002",
    "Latitude": "28.537617000000001",
    "Type": "Gate\nChirag Delhi, Delhi"
  },
  {
    "Name": "Enclosed Mosque",
    "Longitude": "77.187521945857895",
    "Complex": "Mehrauli Archaeological Park",
    "Timings": "Sunrise - Sunset",
    "Latitude": "28.518323962943999",
    "Type": "Mosque",
    "Location": "Mehrauli Archaeological Park\nMehrauli, Delhi"
  },
  {
    "Timings": "Sunrise - Sunset",
    "Name": "Fakhrul Masjid",
    "Started In": "1728",
    "Longitude": "77.229503881358994",
    "Completed In": "1729",
    "Location": "Bada Bazaar\nKashmere Gate, Delhi",
    "Built By": "Kaniz-i-Fatima",
    "Latitude": "28.664965512016799",
    "Type": "Mosque",
    "Alternate Name": "Lal Masjid"
  },
  {
    "Timings": "Sunrise - Sunset",
    "Name": "Fatehpuri Masjid",
    "Longitude": "77.222605000000001",
    "Location": "Khari Baoli, Chandni Chowk\nOld Delhi, Delhi",
    "Built By": "Fatehpuri Begum",
    "Latitude": "28.656597000000001",
    "Type": "Mosque"
  },
  {
    "Is Ticketed": "No",
    "Name": "Feroz Shah's Tomb",
    "Timings": "Sunrise - Sunset",
    "Longitude": "77.20220167579646",
    "Complex": "Hauz Khas & Deer Park",
    "Location": "\nHauz Khas, Delhi",
    "Latitude": "28.5527576968584",
    "Type": "Tomb"
  },
  {
    "Name": "Gandhak Ki Baoli",
    "Longitude": "77.181554030799802",
    "Timings": "Sunrise - Sunset",
    "Latitude": "28.520815030689299",
    "Type": "BaoliDam",
    "Location": "Behind Mehrauli Archeological Park\nMehrauli, Delhi"
  },
  {
    "Timings": "Sunrise - Sunset",
    "Name": "Gaushala",
    "Longitude": "77.170243999999997",
    "Latitude": "28.519853999999999",
    "Type": "Other\nKishangarh, Delhi"
  },
  {
    "Name": "Ghaziuddin Bahadur Khan's Tomb",
    "Longitude": "77.221808623695296",
    "Timings": "Sunrise - Sunset",
    "Latitude": "28.645914742209602",
    "Type": "Tomb",
    "Location": "Ajmeri Gate\nOld Delhi, Delhi"
  },
  {
    "Name": "Ghiasuddin Tughluq's Tomb",
    "Longitude": "77.261392664337095",
    "Complex": "Tughlaqabad Fort Complex",
    "Timings": "Sunrise - Sunset",
    "Latitude": "28.509294822156502",
    "Type": "Tomb",
    "Location": "M.B. Road\nTughlakabad, Delhi"
  },
  {
    "Name": "Haji Langa Gumbad",
    "Longitude": "77.179874999999996",
    "Timings": "Sunrise - Sunset",
    "Latitude": "28.553837999999999",
    "Type": "Tomb",
    "Location": "Sector 3\nR.K.Puram, Delhi"
  },
  {
    "Name": "Haji Rozbih's Grave",
    "Longitude": "77.181011999999996",
    "Complex": "Lal Kot",
    "Timings": "Sunrise - Sunset",
    "Latitude": "28.531091",
    "Type": "Tomb",
    "Location": "In Fateh burj of Lal Kot, Sanjay Van\nMehrauli, Delhi"
  },
  {
    "Name": "Hathi Khana (Shikragah)",
    "Longitude": "77.056451999999993",
    "Timings": "Sunrise - Sunset",
    "Latitude": "28.635238000000001",
    "Type": "HuntingLodge",
    "Location": "Hastsal\nNajafgarh, Delhi"
  },
  {
    "Timings": "Sunrise - Sunset",
    "Name": "Hauz-i-Shamsi",
    "Longitude": "77.177428793334897",
    "Location": "Near Jahaz Mahal\nMehrauli, Delhi",
    "Latitude": "28.5136150478288",
    "Type": "BaoliDam",
    "Alternate Name": "Shamsi Talaab"
  },
  {
    "Timings": "Sunrise - Sunset",
    "Name": "Hijron ki Khanqah",
    "Longitude": "77.178025000000005",
    "Latitude": "28.517455999999999",
    "Type": "Tomb\nMehrauli, Delhi"
  },
  {
    "Name": "Holy Trinity Church",
    "Longitude": "77.233555999999993",
    "Timings": "Sunrise - Sunset",
    "Latitude": "28.642712",
    "Type": "Church",
    "Location": "Turkman Gate\nOld Delhi, Delhi"
  },
  {
    "Name": "Horse Stable",
    "Longitude": "77.186211999999998",
    "Complex": "Mehrauli Archaeological Park",
    "Timings": "Sunrise - Sunset",
    "Latitude": "28.518646",
    "Type": "Other",
    "Location": "Mehrauli Archaeological Park\nMehrauli, Delhi"
  },
  {
    "Timings": "Sunrise - Sunset",
    "Is Ticketed": "Yes",
    "Name": "Humayun's Tomb",
    "Started In": "1562",
    "Longitude": "77.25063164176936",
    "Complex": "Humayun's Tomb Complex",
    "Completed In": "1572",
    "Location": "Humayun's Tomb Complex\nNizamuddin, Delhi",
    "Built By": "Hamida Banu Begum",
    "Latitude": "28.5932635338475",
    "Type": "Tomb",
    "Alternate Name": "Humayun ka Maqbara"
  },
  {
    "Name": "Idgah, Kharera",
    "Longitude": "77.205239000000006",
    "Timings": "Sunrise - Sunset",
    "Latitude": "28.548805000000002",
    "Type": "Mosque",
    "Location": "Kharehra  Village\nHauz Khas, Delhi"
  },
  {
    "Name": "Idgah, Mehrauli",
    "Longitude": "77.176644999999994",
    "Timings": "Sunrise - Sunset",
    "Latitude": "28.526713000000001",
    "Type": "Mosque",
    "Location": "near Lal Kot, Sanjay Van\nMehrauli, Delhi"
  },
  {
    "Name": "Iltutmish's Tomb",
    "Longitude": "77.184547376060394",
    "Complex": "Qutb Complex",
    "Timings": "Sunrise - Sunset",
    "Latitude": "28.5251654203405",
    "Type": "Tomb",
    "Location": "Qutub Complex\nMehrauli, Delhi"
  },
  {
    "Name": "Imam Zamin's Tomb",
    "Longitude": "77.185891162776898",
    "Complex": "Qutb Complex",
    "Timings": "Sunrise - Sunset",
    "Latitude": "28.524194493033601",
    "Type": "Tomb",
    "Location": "Qutub Complex\nMehrauli, Delhi"
  },
  {
    "Is Ticketed": "No",
    "Name": "Imambada",
    "Longitude": "77.24272717180247",
    "Timings": "Sunrise - Sunset",
    "Latitude": "28.590190103263",
    "Type": "Residential",
    "Location": "Nizamuddin Basti\nNizamuddin, Delhi"
  },
  {
    "Is Ticketed": "Yes",
    "Name": "Iron Pillar",
    "Timings": "Sunrise - Sunset",
    "Longitude": "77.18497116508479",
    "Complex": "Qutb Complex",
    "Location": "Qutub Complex\nMehrauli, Delhi",
    "Built By": "Chandragupta Vikramaditya",
    "Latitude": "28.5247647960791",
    "Type": "Tower",
    "Built In": "375"
  },
  {
    "Is Ticketed": "Yes",
    "Name": "Isa Khan's Tomb",
    "Timings": "Sunrise - Sunset",
    "Longitude": "77.24609334411616",
    "Complex": "Humayun's Tomb Complex",
    "Location": "Humayun's Tomb Complex\nNizamuddin, Delhi",
    "Built By": "Islam Shah Suri",
    "Latitude": "28.5922838140077",
    "Type": "Tomb",
    "Built In": "1547"
  },
  {
    "Name": "Jahanara Begum's Tomb",
    "Longitude": "77.242027115249499",
    "Complex": "Nizamuddin Dargah Complex",
    "Timings": "Sunrise - Sunset",
    "Latitude": "28.591285244005601",
    "Type": "Tomb",
    "Location": "Nizamuddin Dargah Complex\nNizamuddin, Delhi"
  },
  {
    "Name": "Jahanpanah Wall",
    "Longitude": "77.202365",
    "Timings": "Sunrise - Sunset",
    "Latitude": "28.527491000000001",
    "Type": "Wall",
    "Location": "Adchini\nHauz Rani, Delhi"
  },
  {
    "Is Ticketed": "No",
    "Name": "Jahaz Mahal",
    "Longitude": "77.17844266834254",
    "Timings": "Sunrise - Sunset",
    "Latitude": "28.5142631842597",
    "Type": "CaravanSarai",
    "Location": "\nMehrauli, Delhi"
  },
  {
    "Name": "Jail-Saleemgarh",
    "Longitude": "77.241679000000005",
    "Complex": "Red Fort Complex\nRed Fort, Delhi",
    "Timings": "Sunrise - Sunset",
    "Latitude": "28.661693",
    "Type": "Other"
  },
  {
    "Timings": "Sunrise - Sunset",
    "Name": "Jama Masjid",
    "Longitude": "77.233368944549497",
    "Latitude": "28.650655398094301",
    "Type": "Mosque\nChandni Chowk, Delhi"
  },
  {
    "Timings": "Sunrise - Sunset",
    "Name": "Jama Masjid, Adhchini",
    "Longitude": "77.197372000000001",
    "Latitude": "28.538333999999999",
    "Type": "Mosque\nAdhchini, Delhi"
  },
  {
    "Is Ticketed": "No",
    "Name": "Jamali Kamali Mosque",
    "Timings": "Sunrise - Sunset",
    "Longitude": "77.18695599975581",
    "Complex": "Mehrauli Archaeological Park",
    "Location": "Mehrauli Archeological Park\nMehrauli, Delhi",
    "Latitude": "28.51943870536",
    "Type": "Mosque"
  },
  {
    "Is Ticketed": "No",
    "Name": "Jamali Kamali Tomb",
    "Timings": "Sunrise - Sunset",
    "Longitude": "77.18707401695247",
    "Complex": "Mehrauli Archaeological Park",
    "Location": "Mehrauli Archeological Park\nMehrauli, Delhi",
    "Latitude": "28.5199100516737",
    "Type": "Tomb"
  },
  {
    "Name": "Jami Masjid",
    "Longitude": "77.245543491268094",
    "Complex": "Kotla Feroz Shah\nKotla Feroz Shah, Delhi",
    "Timings": "Sunrise - Sunset",
    "Latitude": "28.635210993829698",
    "Type": "Mosque"
  },
  {
    "Name": "Jantar Mantar",
    "Longitude": "77.216578316116198",
    "Timings": "Sunrise - Sunset",
    "Latitude": "28.626799298942199",
    "Type": "Other",
    "Location": "Sansad Marg\nConnaught Place, Delhi"
  },
  {
    "Timings": "Sunrise - Sunset",
    "Name": "Jharna",
    "Longitude": "77.179406999999998",
    "Latitude": "28.513401000000002",
    "Type": "BaoliDam\nMehrauli, Delhi"
  },
  {
    "Timings": "Sunrise - Sunset",
    "Name": "Kalan Masjid Nizamuddin",
    "Longitude": "77.243121456527604",
    "Latitude": "28.589975784062499",
    "Type": "Mosque\nNizamuddin, Delhi"
  },
  {
    "Name": "Kalan Masjid Turkman Gate",
    "Longitude": "77.230643820190295",
    "Timings": "Sunrise - Sunset",
    "Latitude": "28.645062625433901",
    "Type": "Mosque",
    "Location": "Turkman Gate\nOld Delhi, Delhi"
  },
  {
    "Is Ticketed": "No",
    "Name": "Kale Khan's Tomb",
    "Timings": "Sunrise - Sunset",
    "Longitude": "77.22075451555247",
    "Location": "\nSouth Ex (Part 1), Delhi",
    "Latitude": "28.5722799897946",
    "Type": "Tomb",
    "Alternate Name": "Kale Khan ka Gumbad"
  },
  {
    "Is Ticketed": "No",
    "Name": "Kali Gumti",
    "Timings": "Sunrise - Sunset",
    "Longitude": "77.19802815856929",
    "Complex": "Hauz Khas & Deer Park",
    "Location": "Humayunpur\nHauz Khas, Delhi",
    "Latitude": "28.5567227562494",
    "Type": "Tomb"
  },
  {
    "Timings": "Sunrise - Sunset",
    "Name": "Kalu Sarai Masjid",
    "Longitude": "77.203449000000006",
    "Latitude": "28.541974",
    "Type": "Mosque\nKalu Sarai, Delhi"
  },
  {
    "Name": "Kashmere Gate",
    "Longitude": "77.2290237659453",
    "Timings": "Sunrise - Sunset",
    "Latitude": "28.666577631029501",
    "Type": "Gate",
    "Location": "Kashmere Gate\nOld Delhi, Delhi"
  },
  {
    "Name": "Katwariya Sarai Gumbad",
    "Longitude": "77.184939999999997",
    "Timings": "Sunrise - Sunset",
    "Latitude": "28.542821",
    "Type": "Tomb",
    "Location": "Behind IIT Campus\nKatwaria Sarai, Delhi"
  },
  {
    "Timings": "Sunrise - Sunset",
    "Name": "Kaushal Minar",
    "Longitude": "77.057243",
    "Location": "Hastsal\nNajafgarh, Delhi",
    "Latitude": "28.633849000000001",
    "Type": "Tower",
    "Alternate Name": "Hastsal Minar, Chhota Qutub Minar, Kushk Minar"
  },
  {
    "Name": "Khairul-Manazil Mosque",
    "Longitude": "77.239409279251106",
    "Complex": "Old Fort Complex",
    "Timings": "Sunrise - Sunset",
    "Latitude": "28.607487283440602",
    "Type": "Mosque",
    "Location": "Near Old Fort\nMathura Road, Delhi"
  },
  {
    "Is Ticketed": "No",
    "Name": "Khan Shahid's Tomb",
    "Timings": "Sunrise - Sunset",
    "Longitude": "77.18761582317347",
    "Complex": "Mehrauli Archaeological Park",
    "Location": "Mehrauli Archaeological Park\nMehrauli, Delhi",
    "Latitude": "28.5182532600677",
    "Type": "Tomb"
  },
  {
    "Timings": "Sunrise - Sunset",
    "Name": "Khan-e-Jahan Tilangani's Tomb",
    "Longitude": "77.242340933704298",
    "Latitude": "28.5900134665909",
    "Type": "Tomb\nNizamuddin, Delhi"
  },
  {
    "Name": "Khan-i-Khana's Tomb",
    "Longitude": "77.248067449951094",
    "Timings": "Sunrise - Sunset",
    "Latitude": "28.588119902823401",
    "Type": "Tomb",
    "Location": "Near Humayun's Tomb\nNizamuddin, Delhi"
  },
  {
    "Name": "Kharbooze ka Gumbad",
    "Longitude": "77.212911000000005",
    "Timings": "Sunrise - Sunset",
    "Latitude": "28.541238",
    "Type": "Tomb",
    "Location": "Rainbow School\nSadhna Enclave, Delhi"
  },
  {
    "Name": "Khilji Mosque",
    "Longitude": "77.241787000000002",
    "Complex": "Nizamuddin Dargah Complex\nNizamuddin, Delhi",
    "Timings": "Sunrise - Sunset",
    "Latitude": "28.591353999999999",
    "Type": "Mosque"
  },
  {
    "Name": "Khirki Masjid",
    "Timings": "Sunrise - Sunset",
    "Longitude": "77.2197433227538",
    "Completed In": "1354\nKhirki Village, Delhi",
    "Started In": "1351",
    "Built By": "Maqbool Khan-i-Jahan Tilangani",
    "Latitude": "28.5315799143786",
    "Type": "Mosque"
  },
  {
    "Timings": "Sunrise - Sunset",
    "Name": "Khooni Darwaza",
    "Longitude": "77.240988999999999",
    "Location": "Near Kotla Feroz Shah\nBahadur Shah Zafar Marg, Delhi",
    "Latitude": "28.635953000000001",
    "Type": "Gate",
    "Alternate Name": "Kabuli Gate"
  },
  {
    "Type": "Tower",
    "Name": "Kos Minar (Badarpur)",
    "Timings": "Sunrise - Sunset",
    "Location": "Kotla Mahigram\nBadarpur, Delhi"
  },
  {
    "Name": "Kos Minar (Jasola)",
    "Longitude": "77.284931730651806",
    "Timings": "Sunrise - Sunset",
    "Latitude": "28.538705624849399",
    "Type": "Tower",
    "Location": "Behind Apollo Hospital\nJasola, Delhi"
  },
  {
    "Name": "Kos Minar (Zoo)",
    "Longitude": "77.245353054428094",
    "Timings": "Sunrise - Sunset",
    "Latitude": "28.602476221789399",
    "Type": "Tower",
    "Location": "Delhi Zoo\nIndrapat, Delhi"
  },
  {
    "Name": "Kotla Feroz Shah",
    "Longitude": "77.245395969772204",
    "Complex": "Kotla Feroz Shah",
    "Timings": "Sunrise - Sunset",
    "Built By": "Feroz Shah Tughlaq\nBahadur Shah Zafar Marg, Delhi",
    "Latitude": "28.635740674973199",
    "Type": "Fort"
  },
  {
    "Is Ticketed": "No",
    "Name": "Kushk Mahal",
    "Timings": "Sunrise - Sunset",
    "Longitude": "77.1980496162414",
    "Location": "Inside TeenMurti House\nTeen Murti, Delhi",
    "Built By": "Feroz Shah Tughlaq",
    "Latitude": "28.6033263294382",
    "Type": "HuntingLodge",
    "Alternate Name": "Kushak Mahal"
  },
  {
    "Name": "Lakkar Wala Gumbad",
    "Longitude": "77.243966999999998",
    "Complex": "Sunder Nursery",
    "Timings": "Sunrise - Sunset",
    "Latitude": "28.597995000000001",
    "Type": "Tomb",
    "Location": "Sunder Nursery\nNizamuddin, Delhi"
  },
  {
    "Name": "Lal Bangla",
    "Longitude": "77.238281000000001",
    "Complex": "Delhi Golf Club",
    "Timings": "Sunrise - Sunset",
    "Latitude": "28.600327",
    "Type": "Tomb",
    "Location": "Delhi Golf Club Parking\nDelhi Golf Club, Delhi"
  },
  {
    "Is Ticketed": "No",
    "Name": "Lal Gumbad",
    "Timings": "Sunrise - Sunset",
    "Longitude": "77.2136278861999",
    "Location": "\nMalviya Nagar, Delhi",
    "Latitude": "28.5401052613523",
    "Type": "Tomb",
    "Alternate Name": "Rakabwala Gumbad"
  },
  {
    "Name": "Lal Mahal",
    "Longitude": "77.242917000000006",
    "Timings": "Sunrise - Sunset",
    "Latitude": "28.592033000000001",
    "Type": "Residential\nNizamuddin, Delhi",
    "Alternate Name": "Kushk-i-Lal"
  },
  {
    "Is Ticketed": "No",
    "Name": "Lothian Cementry",
    "Longitude": "77.23354060592646",
    "Timings": "Sunrise - Sunset",
    "Latitude": "28.662885018128915",
    "Type": "Tomb",
    "Location": "Kashmere Gate\nOld Delhi, Delhi"
  },
  {
    "Is Ticketed": "No",
    "Name": "Lt. Edward and other graves",
    "Longitude": "",
    "Timings": "Sunrise - Sunset",
    "Latitude": "",
    "Type": "Tomb",
    "Location": "Near Flag Staff Tower\nDelhi Ridge, Delhi"
  },
  {
    "Is Ticketed": "No",
    "Name": "Madhi Masjid",
    "Longitude": "77.1848102325439",
    "Timings": "Sunrise - Sunset",
    "Latitude": "28.5148382547033",
    "Type": "Mosque",
    "Location": "Near Jain Dada Badi\nMehrauli, Delhi"
  },
  {
    "Name": "Magazaria Remains",
    "Longitude": "77.234550999999996",
    "Timings": "Sunrise - Sunset",
    "Latitude": "28.662071999999998",
    "Type": "Other",
    "Location": "Lothian Road\nOld Delhi, Delhi"
  },
  {
    "Name": "Maj. Smith's Cupola",
    "Timings": "Sunrise - Sunset",
    "Longitude": "77.186554000000001",
    "Complex": "Qutb Complex",
    "Location": "Qutub Complex\nMehrauli, Delhi",
    "Built By": "Major Smith",
    "Latitude": "28.523983000000001",
    "Type": "Other"
  },
  {
    "Name": "Majlis Khana",
    "Longitude": "77.226967000000002",
    "Complex": "Chirag Dilli Dargah Complex",
    "Timings": "Sunrise - Sunset",
    "Latitude": "28.538927000000001",
    "Type": "Mosque",
    "Location": "Dargah, Hz. Chirag Dehlvi\nChirag Delhi, Delhi"
  },
  {
    "Name": "Makhdum Sabzwari's Mosque",
    "Longitude": "77.208426000000003",
    "Timings": "Sunrise - Sunset",
    "Latitude": "28.547149999999998",
    "Type": "Mosque",
    "Location": "Mayfair Garden\nHauz Khas, Delhi"
  },
  {
    "Name": "Makhdum Sahib's Mosque",
    "Longitude": "77.176298000000003",
    "Timings": "Sunrise - Sunset",
    "Latitude": "28.511171999999998",
    "Type": "Mosque",
    "Location": "Near Sohan Burj\nMehrauli, Delhi"
  },
  {
    "Name": "Malcha Mahal",
    "Longitude": "77.181033682250899",
    "Timings": "Sunrise - Sunset",
    "Latitude": "28.6095500382465",
    "Type": "HuntingLodge",
    "Location": "Delhi Ridge\nChanakyapuri, Delhi"
  },
  {
    "Is Ticketed": "No",
    "Name": "Malik Munirka",
    "Longitude": "77.17030599999998",
    "Timings": "Sunrise - Sunset",
    "Latitude": "28.557549",
    "Type": "Mosque",
    "Location": "\nMunirka, Delhi"
  },
  {
    "Name": "Maluk Chand ka Gumbad",
    "Longitude": "77.194130000000001",
    "Timings": "Sunrise - Sunset",
    "Latitude": "28.560154000000001",
    "Type": "Tomb",
    "Location": "Behind Safdarjung Enclave Market\nSafdarjung Enclave, Delhi"
  },
  {
    "Is Ticketed": "No",
    "Name": "Maqbara-e-Paik",
    "Longitude": "77.15682942810054",
    "Timings": "Sunrise - Sunset",
    "Latitude": "28.7346146603082",
    "Type": "Tomb",
    "Location": "Muqarba Chowk (Delhi Karnal Bypass)\nDelhi Karnal Road, Delhi"
  },
  {
    "Name": "Masjid , ITI",
    "Longitude": "77.246707999999998",
    "Complex": "Humayun's Tomb Complex",
    "Timings": "Sunrise - Sunset",
    "Latitude": "28.590447000000001",
    "Type": "Mosque",
    "Location": "ITI Campus, Arab ki Sarai\nNizamuddin, Delhi"
  },
  {
    "Timings": "Sunrise - Sunset",
    "Name": "Matka Peer",
    "Longitude": "77.240922045135406",
    "Location": "Near Pragati Maidan\nMathura Road, Delhi",
    "Latitude": "28.613854377866801",
    "Type": "Tomb",
    "Alternate Name": "Sheikh Abu Bakr Tusi's Tomb"
  },
  {
    "Name": "Mehram Khan's Garden",
    "Longitude": "77.123867000000004",
    "Timings": "Sunrise - Sunset",
    "Latitude": "28.569013000000002",
    "Type": "Garden",
    "Location": "Near Palam Airport\nMehram Nagar, Delhi"
  },
  {
    "Is Ticketed": "No",
    "Name": "Metcalf's Bridge",
    "Timings": "Sunrise - Sunset",
    "Longitude": "77.18762655200953",
    "Complex": "Mehrauli Archaeological Park",
    "Location": "Mehrauli Archaeological Park\nMehrauli, Delhi",
    "Latitude": "28.5216634414618",
    "Type": "Bridge"
  },
  {
    "Is Ticketed": "No",
    "Name": "Metcalf's Canopy",
    "Timings": "Sunrise - Sunset",
    "Longitude": "77.18783308210368",
    "Complex": "Mehrauli Archaeological Park",
    "Location": "Mehrauli Archaeological Park\nMehrauli, Delhi",
    "Latitude": "28.5199666130897",
    "Type": "Other"
  },
  {
    "Name": "Mir Taqi's Tomb",
    "Longitude": "77.232468999999995",
    "Complex": "Delhi Golf Club",
    "Timings": "Sunrise - Sunset",
    "Latitude": "28.602737000000001",
    "Type": "Tomb",
    "Location": "Near Kaka Nagar\nDelhi Golf Club, Delhi"
  },
  {
    "Name": "Mirza Ghalib's Tomb",
    "Longitude": "77.243051719093302",
    "Timings": "Sunrise - Sunset",
    "Latitude": "28.591412420900902",
    "Type": "Tomb",
    "Location": "Near Chausath Khamba\nNizamuddin, Delhi"
  },
  {
    "Name": "Mirza Jahangir's Tomb",
    "Longitude": "77.242063999999999",
    "Complex": "Nizamuddin Dargah Complex\nNizamuddin, Delhi",
    "Timings": "Sunrise - Sunset",
    "Latitude": "28.591251",
    "Type": "Tomb"
  },
  {
    "Name": "Mohamadiwali Mosque",
    "Longitude": "77.215730738067506",
    "Timings": "Sunrise - Sunset",
    "Latitude": "28.554557659141299",
    "Type": "Mosque",
    "Location": "Near Siri Fort Sports Complex\nMayfair Garden, Delhi"
  },
  {
    "Name": "Mortello Tower",
    "Longitude": "77.243774999999999",
    "Timings": "Sunrise - Sunset",
    "Latitude": "28.640968999999998",
    "Type": "Tower",
    "Location": "Near Feroz Shah Kotla\nOld Delhi, Delhi"
  },
  {
    "Name": "Mosque of Mehram Khan",
    "Longitude": "77.123867000000004",
    "Timings": "Sunrise - Sunset",
    "Latitude": "28.569013000000002",
    "Type": "Mosque",
    "Location": "Near Mehram Khan's Sarai\nMehram Nagar, Delhi"
  },
  {
    "Timings": "Sunrise - Sunset",
    "Name": "Mosque, K.G. Marg",
    "Longitude": "77.227141000000003",
    "Latitude": "28.619741000000001",
    "Type": "Mosque\nKasturba Gandhi Marg, Delhi"
  },
  {
    "Name": "Mosque, Mehrauli",
    "Longitude": "77.182567000000006",
    "Complex": "Mehrauli Archaeological Park",
    "Timings": "Sunrise - Sunset",
    "Latitude": "28.519179999999999",
    "Type": "Mosque",
    "Location": "Mehrauli Archaeological Park\nMehrauli, Delhi"
  },
  {
    "Timings": "Sunrise - Sunset",
    "Name": "Moth ki Masjid",
    "Longitude": "77.217815000000002",
    "Latitude": "28.562619999999999",
    "Type": "Mosque\nMasjid Moth, Delhi"
  },
  {
    "Is Ticketed": "No",
    "Name": "Mubarak Shah Sayyid's Mosque",
    "Timings": "Sunrise - Sunset",
    "Longitude": "77.22227532806392",
    "Location": "Kotla Mubarakpur\nSouth Ex (Part 1), Delhi",
    "Latitude": "28.5723388786471",
    "Type": "Mosque",
    "Alternate Name": "Kotla Mubarakpur Mosque"
  },
  {
    "Is Ticketed": "No",
    "Name": "Mubarak Shah Sayyid's Tomb",
    "Longitude": "77.22291905822749",
    "Timings": "Sunrise - Sunset",
    "Latitude": "28.5726874999786",
    "Type": "Tomb",
    "Location": "Kotla Mubarakpur\nSouth Ex (Part 1), Delhi"
  },
  {
    "Name": "Mubarkapur Gateway and Wall",
    "Longitude": "77.223124999999996",
    "Timings": "Sunrise - Sunset",
    "Latitude": "28.571657999999999",
    "Type": "Gate",
    "Location": "Kotla Mubarakpur\nSouth Ex (Part 1), Delhi"
  },
  {
    "Name": "Mughal Mosque, Qutub Complex ",
    "Longitude": "77.186441000000002",
    "Complex": "Qutb Complex\nMehrauli, Delhi",
    "Timings": "Sunrise - Sunset",
    "Latitude": "28.525538000000001",
    "Type": "Mosque"
  },
  {
    "Name": "Mughal Sarai, Qutub Complex",
    "Longitude": "77.186808999999997",
    "Complex": "Qutb Complex\nMehrauli, Delhi",
    "Timings": "Sunrise - Sunset",
    "Latitude": "28.525562000000001",
    "Type": "CaravanSarai"
  },
  {
    "Name": "Muhammad Shah Sayyid's Tomb",
    "Longitude": "77.218284201049798",
    "Complex": "Lodhi Garden",
    "Timings": "Sunrise - Sunset",
    "Latitude": "28.590946104865999",
    "Type": "Tomb",
    "Location": "Lodhi Garden\nLodhi Road, Delhi"
  },
  {
    "Is Ticketed": "No",
    "Name": "Munda Gumbad Hauz Khas",
    "Longitude": "77.19168205204005",
    "Timings": "Sunrise - Sunset",
    "Latitude": "28.5565743342566",
    "Type": "Tomb",
    "Location": "\nHauz Khas, Delhi"
  },
  {
    "Name": "Munda Gumbad R.K. Puram",
    "Longitude": "77.178888999999998",
    "Timings": "Sunrise - Sunset",
    "Latitude": "28.561232",
    "Type": "Tomb",
    "Location": "Sector 4\nR.K.Puram, Delhi"
  },
  {
    "Timings": "Sunrise - Sunset",
    "Name": "Murad Ali Shah's Tomb",
    "Longitude": "77.149791311645401",
    "Location": "Muradabad\nVasant Vihar, Delhi",
    "Latitude": "28.563990466074401",
    "Type": "Tomb",
    "Alternate Name": "Qasai Waala Gumbad"
  },
  {
    "Timings": "Sunrise - Sunset",
    "Name": "Muradabad Pahari Masjid",
    "Longitude": "77.149429213428405",
    "Location": "Muradabad\nVasant Vihar, Delhi",
    "Latitude": "28.5635899894563",
    "Type": "Mosque",
    "Alternate Name": "Qasai Waala Gumbad"
  },
  {
    "Timings": "Sunrise - Sunset",
    "Name": "Nai ka Kot",
    "Longitude": "77.275962423706005",
    "Latitude": "28.504316797732699",
    "Type": "Fort\nTughlakabad, Delhi"
  },
  {
    "Is Ticketed": "No",
    "Name": "Najaf khan's Tomb",
    "Timings": "Sunrise - Sunset",
    "Longitude": "77.2135366910934",
    "Location": "Opposite Safdarjang Airport\nJorbagh, Delhi",
    "Latitude": "28.5808797686945",
    "Type": "Tomb",
    "Alternate Name": "Charbagh"
  },
  {
    "Name": "Naubatkhana, Mehrauli",
    "Longitude": "77.180605999999997",
    "Timings": "Sunrise - Sunset",
    "Latitude": "28.520954",
    "Type": "Other\nMehrauli, Delhi",
    "Alternate Name": "Gurudwara, Baba Banda Bahadur"
  },
  {
    "Name": "Naubatkhana, Red Fort",
    "Longitude": "77.240988999999999",
    "Complex": "Red Fort Complex",
    "Timings": "Sunrise - Sunset",
    "Latitude": "28.655760999999998",
    "Type": "Other",
    "Location": "Red Fort\nOld Delhi, Delhi"
  },
  {
    "Timings": "Sunrise - Sunset",
    "Name": "Nazir ka Bagh",
    "Longitude": "77.186806000000004",
    "Location": "Anuvrat Marg\nMehrauli, Delhi",
    "Latitude": "28.517126999999999",
    "Type": "Garden",
    "Alternate Name": "Ashoka Mission"
  },
  {
    "Name": "Nila Gumbad",
    "Longitude": "77.253120731735095",
    "Timings": "Sunrise - Sunset",
    "Latitude": "28.591954098546498",
    "Type": "Tomb",
    "Location": "Near Nizamuddin Railway Station\nNizamuddin, Delhi"
  },
  {
    "Name": "Nili Masjid",
    "Longitude": "77.207002829933103",
    "Timings": "Sunrise - Sunset",
    "Latitude": "28.5535681548883",
    "Type": "Mosque",
    "Location": "Kharehra Village\nHauz Khas, Delhi"
  },
  {
    "Timings": "Sunrise - Sunset",
    "Name": "North Gate, Chirag Delhi",
    "Longitude": "77.228825999999998",
    "Latitude": "28.540042",
    "Type": "Gate\nChirag Delhi, Delhi"
  },
  {
    "Name": "Phuta Gumbad",
    "Longitude": "77.234110000000001",
    "Complex": "Jawaharlal Nehru Stadium",
    "Timings": "Sunrise - Sunset",
    "Latitude": "28.581436",
    "Type": "Tomb",
    "Location": "Inside Jawahar Lal Nehru Stadium\nSouth Delhi, Delhi"
  },
  {
    "Is Ticketed": "No",
    "Name": "Pir Ghaib",
    "Longitude": "77.21324164810176",
    "Timings": "Sunrise - Sunset",
    "Latitude": "28.6764216094395",
    "Type": "HuntingLodge",
    "Location": "Inside Hindu Rao Hospital\nDelhi Ridge, Delhi"
  },
  {
    "Name": "Punjabi Gate",
    "Longitude": "77.201708149337705",
    "Timings": "Sunrise - Sunset",
    "Latitude": "28.673616534584799",
    "Type": "Gate",
    "Location": "Roshnara Bagh\nSubzi Mandi, Delhi"
  },
  {
    "Is Ticketed": "Yes",
    "Name": "Purana Qila",
    "Timings": "Sunrise - Sunset",
    "Longitude": "77.24320728721614",
    "Complex": "Old Fort Complex",
    "Location": "Indrapath\nMathura Road, Delhi",
    "Latitude": "28.6095312004864",
    "Type": "Fort",
    "Alternate Name": "Old Fort"
  },
  {
    "Name": "Purani Idgah",
    "Longitude": "77.213086000000004",
    "Timings": "Sunrise - Sunset",
    "Latitude": "28.654620999999999",
    "Type": "Mosque",
    "Location": "Narain Market\nPaharganj, Delhi"
  },
  {
    "Timings": "Sunrise - Sunset",
    "Name": "Qadam Sharif",
    "Longitude": "77.211923999999996",
    "Location": "Paharganj\nOld Delhi, Delhi",
    "Latitude": "28.649764999999999",
    "Type": "Tomb",
    "Alternate Name": "Chindbagh"
  },
  {
    "Timings": "Sunrise - Sunset",
    "Name": "Qazion ki Masjid",
    "Longitude": "77.181713000000002",
    "Latitude": "28.522523",
    "Type": "Mosque\nMehrauli, Delhi"
  },
  {
    "Name": "Qila Rai Pithora",
    "Longitude": "77.202384066009401",
    "Timings": "Sunrise - Sunset",
    "Latitude": "28.527423027418401",
    "Type": "Fort\nLado Sarai, Delhi",
    "Alternate Name": "Qila-i-Rai Pithora"
  },
  {
    "Is Ticketed": "Yes",
    "Name": "Qila-e-Kuhna Mosque",
    "Timings": "Sunrise - Sunset",
    "Longitude": "77.24484879913325",
    "Complex": "Old Fort Complex",
    "Location": "Old Fort\nMathura Road, Delhi",
    "Latitude": "28.6097478345244",
    "Type": "Mosque"
  },
  {
    "Timings": "Sunrise - Sunset",
    "Name": "Qudsia Gateway",
    "Longitude": "77.228571000000002",
    "Latitude": "28.670869",
    "Type": "Gate\nQudsia Garden, Delhi"
  },
  {
    "Name": "Qudsia Mosque",
    "Longitude": "77.230649184608396",
    "Timings": "Sunrise - Sunset",
    "Latitude": "28.670571343135901",
    "Type": "Mosque\nQudsia Garden, Delhi",
    "Alternate Name": "Shahi Masjid"
  },
  {
    "Is Ticketed": "No",
    "Name": "Quli Khan's Tomb",
    "Timings": "Sunrise - Sunset",
    "Longitude": "77.1869533175468",
    "Complex": "Mehrauli Archaeological Park",
    "Location": "Mehrauli Archaeological Park\nMehrauli, Delhi",
    "Latitude": "28.5224482153482",
    "Type": "Tomb"
  },
  {
    "Timings": "Sunrise - Sunset",
    "Name": "Qutub Minar",
    "Type": "Tower",
    "Started In": "1193",
    "Longitude": "77.185468999999998",
    "Complex": "Qutb Complex",
    "Completed In": "1245",
    "Location": "Qutub Complex\nMehrauli, Delhi",
    "Latitude": "28.524418000000001",
    "Started By": "Qutb-ud-Din Aibak",
    "Completed By": "Alauddin Khilji"
  },
  {
    "Name": "Quwwat-ul-Islam Mosque",
    "Longitude": "77.184405218982604",
    "Complex": "Qutb Complex",
    "Timings": "Sunrise - Sunset",
    "Latitude": "28.5240106756921",
    "Type": "Mosque",
    "Location": "Qutub Complex\nMehrauli, Delhi"
  },
  {
    "Is Ticketed": "No",
    "Name": "Rajo'n Ki Baoli",
    "Timings": "Sunrise - Sunset",
    "Longitude": "77.18342621269221",
    "Complex": "Mehrauli Archaeological Park",
    "Location": "Mehrauli Archeological Park\nMehrauli, Delhi",
    "Latitude": "28.5203531152872",
    "Type": "BaoliDam"
  },
  {
    "Name": "Razia Sultana's Tomb",
    "Longitude": "77.231779000000003",
    "Timings": "Sunrise - Sunset",
    "Latitude": "28.645233000000001",
    "Type": "Tomb",
    "Location": "Turkman Gate\nOld Delhi, Delhi"
  },
  {
    "Timings": "Sunrise - Sunset",
    "Ticket (SAARC Nationals)": "0",
    "Is Ticketed": "Yes",
    "Name": "Red Fort",
    "Ticket (Foreign Nationals)": "0",
    "Started In": "1638",
    "Longitude": "77.24201638641352",
    "Complex": "Red Fort Complex",
    "Completed In": "1648",
    "Location": "\nOld Delhi, Delhi",
    "Built By": "Shahjahan",
    "Latitude": "28.6558901137051",
    "Type": "Fort",
    "Alternate Name": "Qila-i-Mubarak"
  },
  {
    "Name": "Roshnara Bagh",
    "Longitude": "77.200278999999995",
    "Timings": "Sunrise - Sunset",
    "Latitude": "28.673658",
    "Type": "Garden",
    "Location": "Roshnara Bagh\nSubzi Mandi, Delhi"
  },
  {
    "Timings": "Sunrise - Sunset",
    "Name": "Safdarjang's Tomb",
    "Longitude": "77.210516523742598",
    "Latitude": "28.589231551358001",
    "Type": "Tomb\nJorbagh, Delhi"
  },
  {
    "Is Ticketed": "No",
    "Name": "Sakri Gumti",
    "Longitude": "77.20185030641551",
    "Timings": "Sunrise - Sunset",
    "Latitude": "28.5532147582586",
    "Type": "Tomb",
    "Location": "\nGreen Park, Delhi"
  },
  {
    "Name": "Salimgarh",
    "Longitude": "77.243545245551999",
    "Complex": "Red Fort Complex",
    "Timings": "Sunrise - Sunset",
    "Latitude": "28.6605220541697",
    "Type": "Fort",
    "Location": "near Red Fort\nOld Delhi, Delhi"
  },
  {
    "Name": "Salimgarh Mosque",
    "Longitude": "77.242139768028196",
    "Complex": "Red Fort Complex",
    "Timings": "Sunrise - Sunset",
    "Latitude": "28.662188372937202",
    "Type": "Mosque",
    "Location": "Inside Salimgarh Fort\nOld Delhi, Delhi"
  },
  {
    "Name": "Sanderson's Sundial",
    "Longitude": "77.186357999999998",
    "Complex": "Qutb Complex",
    "Timings": "Sunrise - Sunset",
    "Latitude": "28.524235999999998",
    "Type": "Other",
    "Location": "Qutub Complex\nMehrauli, Delhi"
  },
  {
    "Name": "Sarai of Mehram Khan",
    "Longitude": "77.122805606746596",
    "Timings": "Sunrise - Sunset",
    "Latitude": "28.565170685362499",
    "Type": "CaravanSarai",
    "Location": "Near Palam Airport\nMehram Nagar, Delhi"
  },
  {
    "Timings": "Sunrise - Sunset",
    "Name": "Sarai Shahji",
    "Longitude": "77.210360955619706",
    "Latitude": "28.539577454484601",
    "Type": "CaravanSarai\nMalviya Nagar, Delhi"
  },
  {
    "Name": "Satpula",
    "Longitude": "77.223466228866499",
    "Timings": "Sunrise - Sunset",
    "Latitude": "28.531669460026301",
    "Type": "BaoliDam",
    "Location": "Opposite Select City Walk\nKhirki Village, Delhi"
  },
  {
    "Timings": "Sunrise - Sunset",
    "Name": "Saubate Tomb",
    "Longitude": "77.174035000000003",
    "Latitude": "28.517726",
    "Type": "Tomb\nMehrauli, Delhi"
  },
  {
    "Timings": "Sunrise - Sunset",
    "Name": "Sayed Abid's Tomb",
    "Longitude": "77.233836999999994",
    "Latitude": "28.603608000000001",
    "Type": "Tomb\nDelhi Golf Club, Delhi"
  },
  {
    "Name": "Sayid Yassin's Tomb",
    "Longitude": "77.246834000000007",
    "Timings": "Sunrise - Sunset",
    "Latitude": "28.591598999999999",
    "Type": "Tomb",
    "Location": "NCC-ITI Campus, Arab ki Sarai\nNizamuddin, Delhi"
  },
  {
    "Timings": "Sunrise - Sunset",
    "Name": "Shah Alam's Tomb",
    "Longitude": "77.229270529174798",
    "Latitude": "28.710970579752299",
    "Type": "Tomb\nWazirabad, Delhi"
  },
  {
    "Name": "Shahi Idgah",
    "Longitude": "77.205010999999999",
    "Timings": "Sunrise - Sunset",
    "Latitude": "28.654152",
    "Type": "Mosque",
    "Location": "Rani Jhansi Road\nPaharganj, Delhi"
  },
  {
    "Timings": "Sunrise - Sunset",
    "Name": "Shahjahanabad City Wall",
    "Longitude": "77.242414999999994",
    "Location": "Near Kashmere Gate\nOld Delhi, Delhi",
    "Latitude": "28.641057",
    "Type": "Wall",
    "Alternate Name": "Sheherpanah"
  },
  {
    "Name": "Shaikh Ali's Gumti",
    "Longitude": "77.231628999999998",
    "Timings": "Sunrise - Sunset",
    "Latitude": "28.573826",
    "Type": "Tomb\nDefense Colony, Delhi",
    "Alternate Name": "Def Col RWA Office"
  },
  {
    "Name": "Shaikh Naruddin Malik Yar Parran's Tomb",
    "Longitude": "77.239870619201596",
    "Timings": "Sunrise - Sunset",
    "Latitude": "28.6140898399346",
    "Type": "Tomb",
    "Location": "Behind National Stadium\nMathura Road, Delhi"
  },
  {
    "Type": "Tomb\nKhirki Village, Delhi",
    "Name": "Shaikh Usman Saiyah's Tomb",
    "Timings": "Sunrise - Sunset"
  },
  {
    "Type": "Tomb",
    "Name": "Shaikh Ziyauddin's Tomb",
    "Timings": "Sunrise - Sunset",
    "Location": "Azad Apartment\nKalu Sarai, Delhi"
  },
  {
    "Is Ticketed": "No",
    "Name": "Sheesh Gumbad",
    "Timings": "Sunrise - Sunset",
    "Longitude": "77.22017247619624",
    "Complex": "Lodhi Garden",
    "Location": "Lodhi Garden\nLodhi Road, Delhi",
    "Latitude": "28.5937392598994",
    "Type": "Tomb"
  },
  {
    "Name": "Sheesh Mahal",
    "Timings": "Sunrise - Sunset",
    "Alternate Name": "Azizabad",
    "Longitude": "77.154254507446296",
    "Built By": "Shahjahan",
    "Latitude": "28.720116476991301",
    "Type": "Residential",
    "Built In": "1653\nShalimar Bagh, Delhi"
  },
  {
    "Name": "Sheikh Kamluddin's Tomb",
    "Longitude": "77.227035999999998",
    "Complex": "Chirag Dilli Dargah Complex",
    "Timings": "Sunrise - Sunset",
    "Latitude": "28.538563",
    "Type": "Tomb",
    "Location": "Dargah, Hz. Chirag Dehlvi\nChirag Delhi, Delhi"
  },
  {
    "Timings": "Sunrise - Sunset",
    "Name": "Sheikh Salahuddin Dervesh's Tomb",
    "Longitude": "77.221259000000003",
    "Latitude": "28.541003",
    "Type": "Tomb\nSheikh Sarai, Delhi"
  },
  {
    "Name": "Sheikh Zainuddin's Tomb",
    "Longitude": "77.227103",
    "Complex": "Chirag Dilli Dargah Complex",
    "Timings": "Sunrise - Sunset",
    "Latitude": "28.538506999999999",
    "Type": "Tomb",
    "Location": "Dargah, Hz. Chirag Dehlvi\nChirag Delhi, Delhi"
  },
  {
    "Is Ticketed": "Yes",
    "Name": "Sher Mandal",
    "Timings": "Sunrise - Sunset",
    "Longitude": "77.24502582492823",
    "Complex": "Old Fort Complex",
    "Location": "Old Fort\nMathura Road, Delhi",
    "Latitude": "28.6086528861677",
    "Type": "Other"
  },
  {
    "Name": "Sher Shah Gate",
    "Timings": "Sunrise - Sunset",
    "Longitude": "77.239045000000004",
    "Complex": "Old Fort Complex",
    "Location": "Near Old Fort\nMathura Road, Delhi",
    "Latitude": "28.608719000000001",
    "Type": "Gate",
    "Alternate Name": "Lal Darwaza"
  },
  {
    "Is Ticketed": "No",
    "Name": "Sikandar Lodhi's Tomb",
    "Timings": "Sunrise - Sunset",
    "Longitude": "77.2215511316299",
    "Complex": "Lodhi Garden",
    "Location": "Lodhi Garden\nLodhi Road, Delhi",
    "Latitude": "28.5962615140364",
    "Type": "Tomb"
  },
  {
    "Name": "Siri Fort Wall",
    "Longitude": "77.211278271102799",
    "Timings": "Sunrise - Sunset",
    "Latitude": "28.549713711568401",
    "Type": "Fort",
    "Location": "Asiad Village\nPanchsheel Park, Delhi"
  },
  {
    "Name": "Sixteen sided tomb",
    "Longitude": "77.231290999999999",
    "Complex": "Jawaharlal Nehru Stadium\nJLN Stadium, Delhi",
    "Timings": "Sunrise - Sunset",
    "Latitude": "28.581334999999999",
    "Type": "Tomb"
  },
  {
    "Name": "Sohail's Sarai",
    "Longitude": "77.107841562652496",
    "Timings": "Sunrise - Sunset",
    "Latitude": "28.557233985956302",
    "Type": "CaravanSarai",
    "Location": "Air India A320 Hanger\nIndira Gandhi Intl. Airport, Delhi"
  },
  {
    "Name": "Sohail's Tomb",
    "Longitude": "77.107787918472198",
    "Timings": "Sunrise - Sunset",
    "Latitude": "28.557031379088301",
    "Type": "Tomb",
    "Location": "Air India A320 Hanger\nIndira Gandhi Intl. Airport, Delhi"
  },
  {
    "Name": "Sohan Burj",
    "Longitude": "77.177667",
    "Timings": "Sunrise - Sunset",
    "Latitude": "28.511113000000002",
    "Type": "Tomb",
    "Location": "Near Jahaz Mahal\nMehrauli, Delhi"
  },
  {
    "Timings": "Sunrise - Sunset",
    "Name": "South Gate, Chirag Delhi",
    "Longitude": "77.227541000000002",
    "Latitude": "28.536232999999999",
    "Type": "Gate\nChirag Delhi, Delhi"
  },
  {
    "Timings": "Sunrise - Sunset",
    "Name": "St. Stephen's Church",
    "Longitude": "77.223122000000004",
    "Latitude": "28.659220999999999",
    "Type": "Church\nChandni Chowk, Delhi"
  },
  {
    "Name": "Subz Burj",
    "Longitude": "77.243631076240504",
    "Timings": "Sunrise - Sunset",
    "Latitude": "28.593159910065499",
    "Type": "Tomb",
    "Location": "Near Humayun's Tomb\nNizamuddin, Delhi"
  },
  {
    "Is Ticketed": "Yes",
    "Name": "Sultan Ghari",
    "Timings": "Sunrise - Sunset",
    "Alternate Name": "Peer Baba",
    "Longitude": "77.13700253906245",
    "Location": "Malakpur Village\nVasant Kunj, Delhi",
    "Built By": "Shams-ud-din Iltutmish",
    "Latitude": "28.5334273670668",
    "Type": "Tomb",
    "Built In": "1231"
  },
  {
    "Name": "Sunderwala Burj",
    "Longitude": "77.245277952575606",
    "Timings": "Sunrise - Sunset",
    "Latitude": "28.596127277946199",
    "Type": "Tomb",
    "Location": "Near Humayun's Tomb\nNizamuddin, Delhi"
  },
  {
    "Name": "Sunderwala Mahal",
    "Longitude": "77.246602963828906",
    "Timings": "Sunrise - Sunset",
    "Latitude": "28.596113147821399",
    "Type": "Residential",
    "Location": "Near Humayun's Tomb\nNizamuddin, Delhi"
  },
  {
    "Name": "Sunehri Masjid, Chandni Chowk",
    "Longitude": "77.231851000000006",
    "Timings": "Sunrise - Sunset",
    "Latitude": "28.656013000000002",
    "Type": "Mosque",
    "Location": "Adjacent to Sis Ganj Gurudwara\nOld Delhi, Delhi"
  },
  {
    "Name": "Sunehri Masjid, Red Fort",
    "Longitude": "77.239474999999999",
    "Timings": "Sunrise - Sunset",
    "Latitude": "28.650462000000001",
    "Type": "Mosque",
    "Location": "Near Delhi Fort\nOld Delhi, Delhi"
  },
  {
    "Name": "Takiya Kamli Shah",
    "Longitude": "77.180330999999995",
    "Timings": "Sunrise - Sunset",
    "Latitude": "28.516259999999999",
    "Type": "Mosque\nMehrauli, Delhi",
    "Alternate Name": "Lal Takiya Masjid"
  },
  {
    "Timings": "Sunrise - Sunset",
    "Name": "Talkatora Embankment",
    "Longitude": "77.191751789474395",
    "Latitude": "28.6256503781294",
    "Type": "Other\nTalkatora, Delhi"
  },
  {
    "Name": "Teen Burji",
    "Longitude": "77.188300999999996",
    "Timings": "Sunrise - Sunset",
    "Latitude": "28.566137000000001",
    "Type": "Mosque",
    "Location": "near Bhikaji Cama Place\nMuhammadpur, Delhi"
  },
  {
    "Name": "Telegraph Memorial",
    "Longitude": "77.234189000000001",
    "Timings": "Sunrise - Sunset",
    "Latitude": "28.662286000000002",
    "Type": "Tower",
    "Location": "Near British Magazine\nKashmere Gate, Delhi"
  },
  {
    "Timings": "Sunrise - Sunset",
    "Name": "Telion ka phatak",
    "Longitude": "77.2318669075011",
    "Location": "Turkman Gate\nOld Delhi, Delhi",
    "Latitude": "28.643916258519202",
    "Type": "Gate",
    "Alternate Name": "Haveli Nawab Hauz Muzaffar Khan ka Darwaza"
  },
  {
    "Timings": "Sunrise - Sunset",
    "Name": "Thanewala Gumbad",
    "Longitude": "77.211791000000005",
    "Latitude": "28.549060999999998",
    "Type": "Tomb\nShahpur Jat, Delhi"
  },
  {
    "Name": "Tohfewala Gumbad",
    "Longitude": "77.198967999999994",
    "Complex": "Hauz Khas & Deer Park\nSiri Fort, Delhi",
    "Timings": "Sunrise - Sunset",
    "Latitude": "28.557307000000002",
    "Type": "Tomb"
  },
  {
    "Timings": "Sunrise - Sunset",
    "Name": "Tripolia Gateway North",
    "Longitude": "77.194232999999997",
    "Latitude": "28.687200000000001",
    "Type": "Gate\nDelhi Karnal Road, Delhi"
  },
  {
    "Timings": "Sunrise - Sunset",
    "Name": "Tripolia Gateway South",
    "Longitude": "77.195819",
    "Latitude": "28.685337000000001",
    "Type": "Gate\nDelhi Karnal Road, Delhi"
  },
  {
    "Name": "Tughlakabad Fort",
    "Timings": "Sunrise - Sunset",
    "Longitude": "77.262138318443206",
    "Complex": "Tughlaqabad Fort Complex",
    "Location": "M.B. Road\nTughlakabad, Delhi",
    "Built By": "Ghiasuddin Tughlaq",
    "Latitude": "28.5108951882521",
    "Type": "Fort",
    "Built In": "1321"
  },
  {
    "Timings": "Sunrise - Sunset",
    "Name": "Ugrasen ki Baoli",
    "Longitude": "77.225021910095194",
    "Location": "Hailey Road\nConnaught Place, Delhi",
    "Latitude": "28.6262248401077",
    "Type": "BaoliDam",
    "Alternate Name": "Agrasen ki Baoli"
  },
  {
    "Name": "Unknown Tomb, JLN Stadium",
    "Longitude": "77.234673000000001",
    "Complex": "Jawaharlal Nehru Stadium\nJLN Stadium, Delhi",
    "Timings": "Sunrise - Sunset",
    "Latitude": "28.586245999999999",
    "Type": "Tomb"
  },
  {
    "Timings": "Sunrise - Sunset",
    "Name": "Unknown Tomb, Masjid Moth",
    "Longitude": "77.214667000000006",
    "Latitude": "28.562439000000001",
    "Type": "Tomb\nMasjid Moth, Delhi"
  },
  {
    "Timings": "Sunrise - Sunset",
    "Name": "Valuted Tomb",
    "Longitude": "77.233836999999994",
    "Latitude": "28.603608000000001",
    "Type": "Tomb\nDelhi Golf Club, Delhi"
  },
  {
    "Name": "Walled Mosque",
    "Longitude": "77.182062000000002",
    "Complex": "Mehrauli Archaeological Park",
    "Timings": "Sunrise - Sunset",
    "Latitude": "28.513866",
    "Type": "Mosque",
    "Location": "Mehrauli Archaeological Park\nMehrauli, Delhi"
  },
  {
    "Timings": "Sunrise - Sunset",
    "Name": "Wazirabad Bridge",
    "Longitude": "77.228251",
    "Latitude": "28.711760000000002",
    "Type": "Bridge\nWazirabad, Delhi"
  },
  {
    "Timings": "Sunrise - Sunset",
    "Name": "Wazirabad Mosque",
    "Longitude": "77.228251",
    "Latitude": "28.711760000000002",
    "Type": "Mosque\nWazirabad, Delhi"
  },
  {
    "Timings": "Sunrise - Sunset",
    "Name": "Wazirabad Tomb",
    "Longitude": "77.228251",
    "Latitude": "28.711760000000002",
    "Type": "Tomb\nWazirabad, Delhi"
  },
  {
    "Name": "Wazirpur Tombs",
    "Longitude": "77.174947749996093",
    "Complex": "Wazirpur Gumbad Complex",
    "Timings": "Sunrise - Sunset",
    "Latitude": "28.5628243681508",
    "Type": "Tomb",
    "Location": "Sector 5\nR.K.Puram, Delhi"
  },
  {
    "Timings": "Sunrise - Sunset",
    "Name": "West Gate, Chirag Delhi",
    "Longitude": "77.225615000000005",
    "Latitude": "28.538817999999999",
    "Type": "Gate\nChirag Delhi, Delhi"
  },
  {
    "Is Ticketed": "No",
    "Name": "Yusuf Qattaal's Tomb",
    "Longitude": "77.21907545270915",
    "Timings": "Sunrise - Sunset",
    "Latitude": "28.5339622739799",
    "Type": "Tomb",
    "Location": "Khirki Masjid Road\nMalviya Nagar, Delhi"
  },
  {
    "Timings": "09:00 AM - 05:00 PM",
    "Is Ticketed": "No",
    "Name": "Zafar Mahal",
    "Type": "Residential",
    "Started In": "1842",
    "Longitude": "77.17970330657954",
    "Completed In": "1847",
    "Location": "Behind Hz, Kaki's Dargah\nMehrauli, Delhi",
    "Latitude": "28.5191299723826",
    "Started By": "Akbar Shah II",
    "Alternate Name": "Lal Mahal",
    "Completed By": "Bahadur Shah Zafar"
  },
  {
    "Timings": "Sunrise - Sunset",
    "Name": "Zamrudpur Tomb 1",
    "Longitude": "77.236936999999998",
    "Latitude": "28.557752000000001",
    "Type": "Tomb\nZamrudpur, Delhi"
  },
  {
    "Timings": "Sunrise - Sunset",
    "Name": "Zamrudpur Tomb 2",
    "Longitude": "77.236609000000001",
    "Latitude": "28.557393000000001",
    "Type": "Tomb\nZamrudpur, Delhi"
  },
  {
    "Timings": "Sunrise - Sunset",
    "Name": "Zamrudpur Tomb 3",
    "Longitude": "77.234312000000003",
    "Latitude": "28.554085000000001",
    "Type": "Tomb\nZamrudpur, Delhi"
  },
  {
    "Is Ticketed": "No",
    "Name": "Zinat-Ul-Mosque",
    "Timings": " - ",
    "Alternate Name": "Ghata Masjid",
    "Longitude": "77.24496145191188",
    "Location": "Near Fire Station\nDaryaganj, Delhi",
    "Built By": "Zinat-ul-Nisa Begum",
    "Latitude": "28.6464278920664",
    "Type": "Mosque",
    "Built In": "1707"
  }
]